{"businesses": [{"id": "f1UXpvAVRY4FtUS2Eo1edA", "alias": "phoenician-resto-cafe-austin", "name": "Phoenician Resto Cafe", "image_url": "https://s3-media1.fl.yelpcdn.com/bphoto/ti8Ocf32uu7_rqKDyDxXdQ/o.jpg", "is_closed": false, "url": "https://www.yelp.com/biz/phoenician-resto-cafe-austin?adjust_creative=IPpcjOLgiyNhgTFo4pszMA&utm_campaign=yelp_api_v3&utm_medium=api_v3_business_search&utm_source=IPpcjOLgiyNhgTFo4pszMA", "review_count": 294, "categories": [{"alias": "lebanese", "title": "Lebanese"}, {"alias": "mediterranean", "title": "Mediterranean"}, {"alias": "halal", "title": "Halal"}], "rating": 4.5, "coordinates": {"latitude": 30.2597553, "longitude": -97.737549}, "transactions": ["pickup"], "price": "$$", "location": {"address1": "84 N Interstate 35 Frontage Rd", "address2": null, "address3": "", "city": "Austin", "zip_code": "78701", "country": "US", "state": "TX", "display_address": ["84 N Interstate 35 Frontage Rd", "Austin, TX 78701"]}, "phone": "+15127125904", "display_phone": "(512) 712-5904", "distance": 970.4950527412996}, {"id": "7_keO0r3oVj6hllofDUWfw", "alias": "stella-san-jac-austin-2", "name": "Stella San Jac", "image_url": "https://s3-media4.fl.yelpcdn.com/bphoto/KxdLAuWHi-3D1k7gTt6RHA/o.jpg", "is_closed": false, "url": "https://www.yelp.com/biz/stella-san-jac-austin-2?adjust_creative=IPpcjOLgiyNhgTFo4pszMA&utm_campaign=yelp_api_v3&utm_medium=api_v3_business_search&utm_source=IPpcjOLgiyNhgTFo4pszMA", "review_count": 718, "categories": [{"alias": "newamerican", "title": "American (New)"}, {"alias": "sandwiches", "title": "Sandwiches"}, {"alias": "southern", "title": "Southern"}], "rating": 4.0, "coordinates": {"latitude": 30.2665762751589, "longitude": -97.740525726058}, "transactions": [], "price": "$$", "location": {"address1": "310 E 5th St", "address2": "", "address3": "", "city": "Austin", "zip_code": "78701", "country": "US", "state": "TX", "display_address": ["310 E 5th St", "Austin, TX 78701"]}, "phone": "+15127925648", "display_phone": "(512) 792-5648", "distance": 228.5839769766083}, {"id": "AdT3FPCbhAzkhfA2uOJVvg", "alias": "dinner-elf-austin", "name": "Dinner Elf", "image_url": "https://s3-media2.fl.yelpcdn.com/bphoto/sDt7lM6yy5Wwoue5jL3qAw/o.jpg", "is_closed": false, "url": "https://www.yelp.com/biz/dinner-elf-austin?adjust_creative=IPpcjOLgiyNhgTFo4pszMA&utm_campaign=yelp_api_v3&utm_medium=api_v3_business_search&utm_source=IPpcjOLgiyNhgTFo4pszMA", "review_count": 48, "categories": [{"alias": "fooddeliveryservices", "title": "Food Delivery Services"}, {"alias": "personalchefs", "title": "Personal Chefs"}], "rating": 5.0, "coordinates": {"latitude": 30.2688755, "longitude": -97.7405641}, "transactions": [], "price": "$$", "location": {"address1": "701 Brazos St", "address2": "", "address3": "", "city": "Austin", "zip_code": "78701", "country": "US", "state": "TX", "display_address": ["701 Brazos St", "Austin, TX 78701"]}, "phone": "+15122775134", "display_phone": "(512) 277-5134", "distance": 281.8877070873549}, {"id": "5XuXgPHTJsT4D4MsQfHfZA", "alias": "chinas-family-restaurant-austin", "name": "China's Family Restaurant", "image_url": "https://s3-media3.fl.yelpcdn.com/bphoto/rlaxM3bHlDY6AqIczGl_3w/o.jpg", "is_closed": false, "url": "https://www.yelp.com/biz/chinas-family-restaurant-austin?adjust_creative=IPpcjOLgiyNhgTFo4pszMA&utm_campaign=yelp_api_v3&utm_medium=api_v3_business_search&utm_source=IPpcjOLgiyNhgTFo4pszMA", "review_count": 129, "categories": [{"alias": "szechuan", "title": "Szechuan"}], "rating": 3.5, "coordinates": {"latitude": 30.28271, "longitude": -97.7424}, "transactions": ["delivery", "pickup"], "price": "$$", "location": {"address1": "1914 Guadalupe St", "address2": "Ste B", "address3": "", "city": "Austin", "zip_code": "78705", "country": "US", "state": "TX", "display_address": ["1914 Guadalupe St", "Ste B", "Austin, TX 78705"]}, "phone": "+15122847671", "display_phone": "(512) 284-7671", "distance": 1715.4891567625336}, {"id": "FWEJ0KKEDn7kxqT3FjJTng", "alias": "high-note-austin", "name": "High Note", "image_url": "https://s3-media1.fl.yelpcdn.com/bphoto/5AvppQyhhQe9-I9JULB_vw/o.jpg", "is_closed": false, "url": "https://www.yelp.com/biz/high-note-austin?adjust_creative=IPpcjOLgiyNhgTFo4pszMA&utm_campaign=yelp_api_v3&utm_medium=api_v3_business_search&utm_source=IPpcjOLgiyNhgTFo4pszMA", "review_count": 97, "categories": [{"alias": "coffee", "title": "Coffee & Tea"}, {"alias": "mediterranean", "title": "Mediterranean"}, {"alias": "breakfast_brunch", "title": "Breakfast & Brunch"}], "rating": 4.0, "coordinates": {"latitude": 30.262822110393, "longitude": -97.758133}, "transactions": [], "price": "$$", "location": {"address1": "300 S Lamar", "address2": "Ste A", "address3": null, "city": "Austin", "zip_code": "78704", "country": "US", "state": "TX", "display_address": ["300 S Lamar", "Ste A", "Austin, TX 78704"]}, "phone": "+15128792822", "display_phone": "(512) 879-2822", "distance": 1552.8645560795128}, {"id": "cs6HfZNykLVitm09jWFqWg", "alias": "moonshine-patio-bar-and-grill-austin", "name": "Moonshine Patio Bar & Grill", "image_url": "https://s3-media3.fl.yelpcdn.com/bphoto/5RcWDbJFBMzTfFdTqZdQ_w/o.jpg", "is_closed": false, "url": "https://www.yelp.com/biz/moonshine-patio-bar-and-grill-austin?adjust_creative=IPpcjOLgiyNhgTFo4pszMA&utm_campaign=yelp_api_v3&utm_medium=api_v3_business_search&utm_source=IPpcjOLgiyNhgTFo4pszMA", "review_count": 4491, "categories": [{"alias": "southern", "title": "Southern"}, {"alias": "cocktailbars", "title": "Cocktail Bars"}], "rating": 4.5, "coordinates": {"latitude": 30.26386, "longitude": -97.73796}, "transactions": [], "price": "$$", "location": {"address1": "303 Red River St", "address2": "", "address3": "", "city": "Austin", "zip_code": "78701", "country": "US", "state": "TX", "display_address": ["303 Red River St", "Austin, TX 78701"]}, "phone": "+15122369599", "display_phone": "(512) 236-9599", "distance": 592.824976505845}, {"id": "XOo0oa5sXCZGjKXapIN95w", "alias": "red-ash-austin", "name": "Red Ash", "image_url": "https://s3-media4.fl.yelpcdn.com/bphoto/Jqb-XKWMAWWK3jE7RHEPlA/o.jpg", "is_closed": false, "url": "https://www.yelp.com/biz/red-ash-austin?adjust_creative=IPpcjOLgiyNhgTFo4pszMA&utm_campaign=yelp_api_v3&utm_medium=api_v3_business_search&utm_source=IPpcjOLgiyNhgTFo4pszMA", "review_count": 540, "categories": [{"alias": "italian", "title": "Italian"}, {"alias": "seafood", "title": "Seafood"}, {"alias": "tapasmallplates", "title": "Tapas/Small Plates"}], "rating": 4.5, "coordinates": {"latitude": 30.26588, "longitude": -97.744672}, "transactions": [], "price": "$$$", "location": {"address1": "303 Colorado St", "address2": null, "address3": "", "city": "Austin", "zip_code": "78701", "country": "US", "state": "TX", "display_address": ["303 Colorado St", "Austin, TX 78701"]}, "phone": "+15123792906", "display_phone": "(512) 379-2906", "distance": 235.80782637275993}, {"id": "Uivt3ZgK7yTH1douikhsew", "alias": "cava-austin-7", "name": "CAVA", "image_url": "https://s3-media2.fl.yelpcdn.com/bphoto/oG9UkhOXRqV_Z0g7o3y_MQ/o.jpg", "is_closed": false, "url": "https://www.yelp.com/biz/cava-austin-7?adjust_creative=IPpcjOLgiyNhgTFo4pszMA&utm_campaign=yelp_api_v3&utm_medium=api_v3_business_search&utm_source=IPpcjOLgiyNhgTFo4pszMA", "review_count": 103, "categories": [{"alias": "mediterranean", "title": "Mediterranean"}], "rating": 4.5, "coordinates": {"latitude": 30.2677976, "longitude": -97.7426845}, "transactions": [], "location": {"address1": "515 Congress Ave", "address2": null, "address3": null, "city": "Austin", "zip_code": "78701", "country": "US", "state": "TX", "display_address": ["515 Congress Ave", "Austin, TX 78701"]}, "phone": "+15122568002", "display_phone": "(512) 256-8002", "distance": 65.03471731595845}, {"id": "TzjM11qH5IhmM-MIAJFOew", "alias": "thistle-cafe-austin-4", "name": "Thistle Cafe", "image_url": "https://s3-media2.fl.yelpcdn.com/bphoto/UqFr1JmeWOTq_QlXvemzqA/o.jpg", "is_closed": false, "url": "https://www.yelp.com/biz/thistle-cafe-austin-4?adjust_creative=IPpcjOLgiyNhgTFo4pszMA&utm_campaign=yelp_api_v3&utm_medium=api_v3_business_search&utm_source=IPpcjOLgiyNhgTFo4pszMA", "review_count": 85, "categories": [{"alias": "tradamerican", "title": "American (Traditional)"}], "rating": 4.0, "coordinates": {"latitude": 30.268271, "longitude": -97.744981}, "transactions": ["pickup"], "price": "$", "location": {"address1": "221 W 6th St", "address2": "Ste B110", "address3": "", "city": "Austin", "zip_code": "78701", "country": "US", "state": "TX", "display_address": ["221 W 6th St", "Ste B110", "Austin, TX 78701"]}, "phone": "+15124745222", "display_phone": "(512) 474-5222", "distance": 241.02663987877978}, {"id": "00K-UTXqg9iDoMXB3QXh0A", "alias": "austin-taco-project-austin", "name": "Austin Taco Project", "image_url": "https://s3-media4.fl.yelpcdn.com/bphoto/iGclh-saaO4ltu_wBNAqOQ/o.jpg", "is_closed": false, "url": "https://www.yelp.com/biz/austin-taco-project-austin?adjust_creative=IPpcjOLgiyNhgTFo4pszMA&utm_campaign=yelp_api_v3&utm_medium=api_v3_business_search&utm_source=IPpcjOLgiyNhgTFo4pszMA", "review_count": 452, "categories": [{"alias": "tapasmallplates", "title": "Tapas/Small Plates"}, {"alias": "bars", "title": "Bars"}, {"alias": "tacos", "title": "Tacos"}], "rating": 3.5, "coordinates": {"latitude": 30.26506, "longitude": -97.73862}, "transactions": ["restaurant_reservation"], "price": "$$", "location": {"address1": "500 E 4th St", "address2": "", "address3": null, "city": "Austin", "zip_code": "78701", "country": "US", "state": "TX", "display_address": ["500 E 4th St", "Austin, TX 78701"]}, "phone": "+15126822739", "display_phone": "(512) 682-2739", "distance": 479.3350974042214}, {"id": "I9YphRPMIcEc31P7E7q4ag", "alias": "deans-one-trick-pony-austin", "name": "Dean's One Trick Pony", "image_url": "https://s3-media2.fl.yelpcdn.com/bphoto/ijirr73t9lPN7Ch4qGGtVw/o.jpg", "is_closed": false, "url": "https://www.yelp.com/biz/deans-one-trick-pony-austin?adjust_creative=IPpcjOLgiyNhgTFo4pszMA&utm_campaign=yelp_api_v3&utm_medium=api_v3_business_search&utm_source=IPpcjOLgiyNhgTFo4pszMA", "review_count": 79, "categories": [{"alias": "newamerican", "title": "American (New)"}, {"alias": "bars", "title": "Bars"}], "rating": 4.0, "coordinates": {"latitude": 30.262995069868, "longitude": -97.7445083031319}, "transactions": ["pickup"], "location": {"address1": "111 E Cesar Chavez St", "address2": "", "address3": null, "city": "Austin", "zip_code": "78701", "country": "US", "state": "TX", "display_address": ["111 E Cesar Chavez St", "Austin, TX 78701"]}, "phone": "+15124731570", "display_phone": "(512) 473-1570", "distance": 497.9820509316547}, {"id": "_iLfGaGVofxrGMX23wg78w", "alias": "tlv-israeli-street-food-austin", "name": "TLV Israeli Street food", "image_url": "https://s3-media2.fl.yelpcdn.com/bphoto/Mm1YbzZRbmi0uacsmgmwAg/o.jpg", "is_closed": false, "url": "https://www.yelp.com/biz/tlv-israeli-street-food-austin?adjust_creative=IPpcjOLgiyNhgTFo4pszMA&utm_campaign=yelp_api_v3&utm_medium=api_v3_business_search&utm_source=IPpcjOLgiyNhgTFo4pszMA", "review_count": 58, "categories": [{"alias": "mideastern", "title": "Middle Eastern"}], "rating": 4.5, "coordinates": {"latitude": 30.2635186, "longitude": -97.74358}, "transactions": [], "location": {"address1": "111 Congress Ave", "address2": "", "address3": "", "city": "Austin", "zip_code": "78701", "country": "US", "state": "TX", "display_address": ["111 Congress Ave", "Austin, TX 78701"]}, "phone": "+15126084041", "display_phone": "(512) 608-4041", "distance": 418.506948726934}, {"id": "P2fi7qugfLPOFSxscpaAxg", "alias": "anthem-austin-4", "name": "Anthem", "image_url": "https://s3-media1.fl.yelpcdn.com/bphoto/RX69S08R3pRYRNoNuUu_TQ/o.jpg", "is_closed": false, "url": "https://www.yelp.com/biz/anthem-austin-4?adjust_creative=IPpcjOLgiyNhgTFo4pszMA&utm_campaign=yelp_api_v3&utm_medium=api_v3_business_search&utm_source=IPpcjOLgiyNhgTFo4pszMA", "review_count": 226, "categories": [{"alias": "tradamerican", "title": "American (Traditional)"}, {"alias": "beerbar", "title": "Beer Bar"}, {"alias": "cocktailbars", "title": "Cocktail Bars"}], "rating": 4.5, "coordinates": {"latitude": 30.26006, "longitude": -97.73813}, "transactions": [], "price": "$$", "location": {"address1": "91 Rainey St", "address2": "Ste 120", "address3": null, "city": "Austin", "zip_code": "78701", "country": "US", "state": "TX", "display_address": ["91 Rainey St", "Ste 120", "Austin, TX 78701"]}, "phone": "+15127311411", "display_phone": "(512) 731-1411", "distance": 936.4725050850861}, {"id": "9e5lIroM6Eyd4aS26pWWEQ", "alias": "coopers-old-time-pit-bar-b-que-austin", "name": "Cooper's Old Time Pit Bar-B-Que", "image_url": "https://s3-media3.fl.yelpcdn.com/bphoto/r5Zi4nq0HnBQJ8viwc4D4Q/o.jpg", "is_closed": false, "url": "https://www.yelp.com/biz/coopers-old-time-pit-bar-b-que-austin?adjust_creative=IPpcjOLgiyNhgTFo4pszMA&utm_campaign=yelp_api_v3&utm_medium=api_v3_business_search&utm_source=IPpcjOLgiyNhgTFo4pszMA", "review_count": 1270, "categories": [{"alias": "bbq", "title": "Barbeque"}], "rating": 4.0, "coordinates": {"latitude": 30.2649296236062, "longitude": -97.7437352389097}, "transactions": [], "price": "$$", "location": {"address1": "217 Congress Ave", "address2": "", "address3": "", "city": "Austin", "zip_code": "78701", "country": "US", "state": "TX", "display_address": ["217 Congress Ave", "Austin, TX 78701"]}, "phone": "+15124744227", "display_phone": "(512) 474-4227", "distance": 270.4253108337583}, {"id": "BrZmt_v4Gevh6fhzeec1ag", "alias": "las-perlas-austin", "name": "Las Perlas", "image_url": "https://s3-media1.fl.yelpcdn.com/bphoto/CzYIa61mR1uU73738ikoeA/o.jpg", "is_closed": false, "url": "https://www.yelp.com/biz/las-perlas-austin?adjust_creative=IPpcjOLgiyNhgTFo4pszMA&utm_campaign=yelp_api_v3&utm_medium=api_v3_business_search&utm_source=IPpcjOLgiyNhgTFo4pszMA", "review_count": 35, "categories": [{"alias": "cocktailbars", "title": "Cocktail Bars"}, {"alias": "tacos", "title": "Tacos"}], "rating": 4.5, "coordinates": {"latitude": 30.26766, "longitude": -97.73864}, "transactions": [], "price": "$", "location": {"address1": "405 E 7th St", "address2": "", "address3": null, "city": "Austin", "zip_code": "78701", "country": "US", "state": "TX", "display_address": ["405 E 7th St", "Austin, TX 78701"]}, "phone": "", "display_phone": "", "distance": 399.59483889347155}, {"id": "AsYbCd5d7TtIZEWIL5VhOw", "alias": "roaring-fork-austin", "name": "Roaring Fork", "image_url": "https://s3-media4.fl.yelpcdn.com/bphoto/v-7z-iQNTsPJFXZg92naYQ/o.jpg", "is_closed": false, "url": "https://www.yelp.com/biz/roaring-fork-austin?adjust_creative=IPpcjOLgiyNhgTFo4pszMA&utm_campaign=yelp_api_v3&utm_medium=api_v3_business_search&utm_source=IPpcjOLgiyNhgTFo4pszMA", "review_count": 1038, "categories": [{"alias": "tradamerican", "title": "American (Traditional)"}], "rating": 4.0, "coordinates": {"latitude": 30.2691040039062, "longitude": -97.7419586181641}, "transactions": [], "price": "$$", "location": {"address1": "701 Congress Ave", "address2": null, "address3": "", "city": "Austin", "zip_code": "78701", "country": "US", "state": "TX", "display_address": ["701 Congress Ave", "Austin, TX 78701"]}, "phone": "+15125830000", "display_phone": "(512) 583-0000", "distance": 217.9684435329452}, {"id": "CqOkl94q9ttvYNWIITA8ow", "alias": "swifts-attic-austin", "name": "Swift's Attic", "image_url": "https://s3-media3.fl.yelpcdn.com/bphoto/0gxdcIO49KUFNjV94wQ-7g/o.jpg", "is_closed": false, "url": "https://www.yelp.com/biz/swifts-attic-austin?adjust_creative=IPpcjOLgiyNhgTFo4pszMA&utm_campaign=yelp_api_v3&utm_medium=api_v3_business_search&utm_source=IPpcjOLgiyNhgTFo4pszMA", "review_count": 1019, "categories": [{"alias": "newamerican", "title": "American (New)"}, {"alias": "gastropubs", "title": "Gastropubs"}, {"alias": "tapas", "title": "Tapas Bars"}], "rating": 4.0, "coordinates": {"latitude": 30.26563, "longitude": -97.74337}, "transactions": [], "price": "$$", "location": {"address1": "315 Congress Ave", "address2": "Ste 200", "address3": "", "city": "Austin", "zip_code": "78701", "country": "US", "state": "TX", "display_address": ["315 Congress Ave", "Ste 200", "Austin, TX 78701"]}, "phone": "+15124828842", "display_phone": "(512) 482-8842", "distance": 181.1363631614806}, {"id": "qtDrM9u5-7_v4eblzdFCHw", "alias": "modern-market-austin-7", "name": "Modern Market", "image_url": "https://s3-media1.fl.yelpcdn.com/bphoto/81t7f0gbG_Hiw3fIcAJBJQ/o.jpg", "is_closed": false, "url": "https://www.yelp.com/biz/modern-market-austin-7?adjust_creative=IPpcjOLgiyNhgTFo4pszMA&utm_campaign=yelp_api_v3&utm_medium=api_v3_business_search&utm_source=IPpcjOLgiyNhgTFo4pszMA", "review_count": 70, "categories": [{"alias": "salad", "title": "Salad"}, {"alias": "sandwiches", "title": "Sandwiches"}, {"alias": "breakfast_brunch", "title": "Breakfast & Brunch"}], "rating": 4.0, "coordinates": {"latitude": 30.2664, "longitude": -97.742777}, "transactions": ["delivery", "pickup"], "price": "$$", "location": {"address1": "401 Congress Ave", "address2": "suite 100A", "address3": null, "city": "Austin", "zip_code": "78701", "country": "US", "state": "TX", "display_address": ["401 Congress Ave", "suite 100A", "Austin, TX 78701"]}, "phone": "+18665843944", "display_phone": "(866) 584-3944", "distance": 91.11623493052028}, {"id": "v1UzkU8lEWdjxq8byWFOKg", "alias": "guss-world-famous-fried-chicken-austin", "name": "Gus's World Famous Fried Chicken", "image_url": "https://s3-media1.fl.yelpcdn.com/bphoto/o-uJQMxHDGbGSHghhg1sgA/o.jpg", "is_closed": false, "url": "https://www.yelp.com/biz/guss-world-famous-fried-chicken-austin?adjust_creative=IPpcjOLgiyNhgTFo4pszMA&utm_campaign=yelp_api_v3&utm_medium=api_v3_business_search&utm_source=IPpcjOLgiyNhgTFo4pszMA", "review_count": 2224, "categories": [{"alias": "southern", "title": "Southern"}, {"alias": "chickenshop", "title": "Chicken Shop"}, {"alias": "comfortfood", "title": "Comfort Food"}], "rating": 4.0, "coordinates": {"latitude": 30.2634862, "longitude": -97.7417305}, "transactions": [], "price": "$", "location": {"address1": "117 San Jacinto Blvd", "address2": "", "address3": "", "city": "Austin", "zip_code": "78701", "country": "US", "state": "TX", "display_address": ["117 San Jacinto Blvd", "Austin, TX 78701"]}, "phone": "+15124744877", "display_phone": "(512) 474-4877", "distance": 427.3183009898803}], "total": 814, "region": {"center": {"longitude": -97.7427864074707, "latitude": 30.267219388612432}}}